{
  "code": 200,
  "messages": [],
  "result":
    [
      {
        "id": 1,
        "title": "Lorem ipsum dolor sit amet",
        "details": "Maecenas aliquam mauris non metus placerat, sed ultrices lorem hendrerit. Praesent vitae cursus massa. Suspendisse tristique bibendum egestas.",
        "date_posted": "08/05/2017",
        "category": {"name": "Home", "id": 1},
        "location": {"city": "Brooklyn", "state": "NY", "id": 1}
      },
      {
        "id": 2,
        "title": "Mauris cursus libero ac malesuada volutpat",
        "details": "Quisque condimentum, orci ullamcorper sollicitudin dapibus, nulla diam posuere erat, sit amet bibendum nulla libero quis felis. Cras congue magna eros, ac convallis sem lacinia a. Suspendisse tincidunt nibh facilisis, auctor turpis et, condimentum enim. Aliquam erat volutpat. Maecenas velit massa, elementum non vulputate ullamcorper, commodo et nisl. Mauris faucibus justo in lobortis hendrerit. ",
        "date_posted": "08/07/2017",
        "category": {"name": "Repair", "id": 2},
        "location": {"city": "Brooklyn", "state": "NY", "id": 1}
      },
      {
        "id": 3,
        "title": "Maecenas at placerat ipsum",
        "details": "tiam mattis dolor eget sapien placerat, quis venenatis ex sollicitudin.",
        "date_posted": "08/07/2017",
        "category": {"name": "Home", "id": 1},
        "location": {"city": "Cleveland", "state": "OH", "id": 2}
      },
      {
        "id": 4,
        "title": "Mauris elit felis, sodales in mollis",
        "details": "Quisque fringilla consequat ex, vitae mattis mauris faucibus eget. Aliquam blandit sed nunc at luctus. Ut feugiat ligula vel sapien ornare, vitae pretium ligula consequat.",
        "date_posted": "08/09/2017",
        "category": {"name": "Construction", "id": 3},
        "location": {"city": "Cleveland", "state": "OH", "id": 2}
      },
      {
        "id": 5,
        "title": "Nulla dictum tortor ex, ut pulvinar metus cursus vitae",
        "details": "Donec sit amet risus ac ligula pulvinar fermentum.",
        "date_posted": "08/10/2017",
        "category": {"name": "Home", "id": 1},
        "location": {"city": "Brooklyn", "state": "NY", "id": 1}
      }
    ]
}
